[
{
"name": "Jamie’s Italian"
"address": "Москва, ул. Охотный Ряд, 2"
"lat": "55.75808501401081"
"lng": "37.61758012874539"
"rating": 4.5
"reviews": 1688
"time": "00:00"
}
{
"name": "Wine and Crab"
"address": "Москва, Никольская ул., 19-21, корпус 1"
"lat": "55.75858608096409"
"lng": "37.62411398982826"
"rating": 4.7
"reviews": 1418
"time": "00:00"
}
{
"name": "Разведка"
"address": "Москва, Новая пл., 10"
"lat": "55.758083924189954"
"lng": "37.627396284514596"
"rating": 4.6
"reviews": 1638
"openUntil": "00:00"
}
{
"name": "Реберная №1"
"address": "Москва, Театральная пл., 5 строение 2"
"lat": "55.75724244547091"
"lng": "37.6209957413007"
"rating": 4.5
"reviews": 958
"openUntil": "23:00"
}
{
"name": "Макдоналдс"
"address": "Москва, Манежная пл., 1, строение 2"
"lat": "55.75587037234875"
"lng": "37.61516451926828"
"rating": 4.3
"reviews": 9390
"openUntil": "23:00"
}
]
